{"type":"FeatureCollection","features":[{"type":"Feature","properties":{"location":"Adoratsky Street, 2","discipline":"BMW","title":"BMW M4"},"geometry":{"type":"Point","coordinates":[49.147682189941406,55.82144107975957]}},{"type":"Feature","properties":{"location":"Moskovskaya Street, 1","discipline":"Lamborghini","title":"Lamborghini Huracan"},"geometry":{"type":"Point","coordinates":[49.10167694091797,55.79404393628731]}},{"type":"Feature","properties":{"location":"Chistopolskaya Street, 23","discipline":"Audi","title":"Audi A4"},"geometry":{"type":"Point","coordinates":[49.11661148071289,55.81960877409888]}},{"type":"Feature","properties":{"location":"Partizanskaya Street, 21","discipline":"Ferrari","title":"Ferrari 488"},"geometry":{"type":"Point","coordinates":[49.08245086669922,55.834554011618344]}},{"type":"Feature","properties":{"location":"Karl Marx Street, 40/60","discipline":"Jaguar","title":"Jaguar F-Pace"},"geometry":{"type":"Point","coordinates":[49.12553787231445,55.796118690471815]}},{"type":"Feature","properties":{"location":"Tolstoy Street, 6/30","discipline":"Lexus","title":"Lexus NX"},"geometry":{"type":"Point","coordinates":[49.13824081420898,55.79274112716912]}},{"type":"Feature","properties":{"location":"Marshal Chuikov Street, 73","discipline":"Mercedes-Benz","title":"Mercedes-Benz GLE-Coupe"},"geometry":{"type":"Point","coordinates":[49.14974212646484,55.83638561341604]}},{"type":"Feature","properties":{"location":"45 Chetaeva Street, 45","discipline":"Porsche","title":"Porsche Taycan"},"geometry":{"type":"Point","coordinates":[49.109230041503906,55.82404473410693]}},{"type":"Feature","properties":{"location":"Yamashev Avenue, 115A","discipline":"BMW","title":"BMW X5"},"geometry":{"type":"Point","coordinates":[49.16055679321289,55.82153751450933]}},{"type":"Feature","properties":{"location":"Vosstaniya Street, 62","discipline":"Lamborghini","title":"Lamborghini Aventador"},"geometry":{"type":"Point","coordinates":[49.06768798828125,55.83378278505158]}},{"type":"Feature","properties":{"location":"Galiaskara Kamala Street, 4 A","discipline":"Audi","title":"Audi Q7"},"geometry":{"type":"Point","coordinates":[49.11163330078125,55.78661251449472]}},{"type":"Feature","properties":{"location":"Ulyanov-Lenin Street, 19","discipline":"Ferrari","title":"Ferrari FF"},"geometry":{"type":"Point","coordinates":[49.132747650146484,55.78390982776992]}},{"type":"Feature","properties":{"location":"Pobedy Avenue, 141","discipline":"Jaguar","title":"Jaguar XF"},"geometry":{"type":"Point","coordinates":[49.214200973510735,55.77942102307777]}},{"type":"Feature","properties":{"location":"Pobedy Avenue, 141","discipline":"Lexus","title":"Lexus LX"},"geometry":{"type":"Point","coordinates":[49.2106819152832,55.77966236981707]}},{"type":"Feature","properties":{"location":"Karbyshev Street, 70","discipline":"Mercedes-Benz","title":"Mercedes-Benz G-Class"},"geometry":{"type":"Point","coordinates":[49.174461364746094,55.75117313485224]}},{"type":"Feature","properties":{"location":"Chistopolskaya Street, 86/10","discipline":"Porsche","title":"Porsche 911"},"geometry":{"type":"Point","coordinates":[49.143251180648804,55.81877697528982]}},{"type":"Feature","properties":{"location":"Siberian tract, 34k4","discipline":"BMW","title":"BMW M3"},"geometry":{"type":"Point","coordinates":[49.18349504470825,55.816811930671875]}},{"type":"Feature","properties":{"location":"Chistopolskaya Street, 20B","discipline":"Audi","title":"Audi Q5"},"geometry":{"type":"Point","coordinates":[49.11241650581359,55.81707715721078]}},{"type":"Feature","properties":{"location":"Chistopolskaya Street, 38","discipline":"Lexus","title":"Lexus LC"},"geometry":{"type":"Point","coordinates":[49.12184715270996,55.819030133331495]}},{"type":"Feature","properties":{"location":"Sara Sadykova Street, 22","discipline":"Mercedes-Benz","title":"Mercedes-Benz E-Class"},"geometry":{"type":"Point","coordinates":[49.115238189697266,55.77502825125135]}},{"type":"Feature","properties":{"location":"Team street, 15","discipline":"Porsche","title":"Porsche Macan"},"geometry":{"type":"Point","coordinates":[49.15386199951171,55.778745244255546]}},{"type":"Feature","properties":{"location":"Kremlin street, 18","discipline":"BMW","title":"BMW X7"},"geometry":{"type":"Point","coordinates":[49.12253379821777,55.79090747013747]}},{"type":"Feature","properties":{"location":"Spartak Street, 113","discipline":"Mercedes-Benz","title":"Mercedes-Benz C-Class"},"geometry":{"type":"Point","coordinates":[49.141502380371094,55.77396618813479]}},{"type":"Feature","properties":{"location":"Pobedy Avenue, 124","discipline":"Porsche","title":"Porsche Panamera"},"geometry":{"type":"Point","coordinates":[49.22149658203125,55.779758908094266]}}]}
